{"class":"TPV","tag":"RMC","device":"/dev/ttyUSB0","mode":2,"time":"2016-12-21T15:48:18.001Z","ept":0.005,"lat":52.487416667,"lon":1.742755000,"track":0.0000,"speed":0.000}
{"class":"TPV","tag":"RMC","device":"/dev/ttyUSB0","mode":3,"time":"2016-12-21T15:48:23.001Z","ept":0.005,"lat":52.487416667,"lon":1.742755000,"alt":27.300,"epx":8.006,"epy":12.512,"epv":29.900,"track":0.0000,"speed":0.000,"climb":0.000,"eps":25.02,"epc":59.80}
{"class":"TPV","tag":"RMC","device":"/dev/ttyUSB0","mode":3,"time":"2016-12-21T15:48:27.001Z","ept":0.005,"lat":52.487416667,"lon":1.742755000,"alt":27.300,"epx":8.006,"epy":12.512,"epv":36.800,"track":0.0000,"speed":0.000,"climb":0.000,"eps":25.02,"epc":66.70}
{"class":"TPV","tag":"RMC","device":"/dev/ttyUSB0","mode":3,"time":"2016-12-21T15:48:32.001Z","ept":0.005,"lat":52.487416667,"lon":1.742755000,"alt":27.300,"epx":8.006,"epy":12.512,"epv":29.900,"track":0.0000,"speed":0.000,"climb":0.000,"eps":25.02,"epc":59.80}
{"class":"TPV","tag":"RMC","device":"/dev/ttyUSB0","mode":3,"time":"2016-12-21T15:48:36.001Z","ept":0.005,"lat":52.487416667,"lon":1.742755000,"alt":27.300,"epx":8.006,"epy":12.512,"epv":29.900,"track":0.0000,"speed":0.000,"climb":0.000,"eps":25.02,"epc":59.80}
{"class":"TPV","tag":"RMC","device":"/dev/ttyUSB0","mode":3,"time":"2016-12-21T15:48:41.001Z","ept":0.005,"lat":52.487416667,"lon":1.742755000,"alt":27.300,"epx":8.006,"epy":12.512,"epv":29.900,"track":0.0000,"speed":0.000,"climb":0.000,"eps":25.02,"epc":59.80}
{"class":"TPV","tag":"RMC","device":"/dev/ttyUSB0","mode":3,"time":"2016-12-21T15:48:45.001Z","ept":0.005,"lat":52.487416667,"lon":1.742755000,"alt":27.300,"epx":8.006,"epy":12.512,"epv":29.900,"track":0.0000,"speed":0.000,"climb":0.000,"eps":25.02,"epc":59.80}
{"class":"TPV","tag":"RMC","device":"/dev/ttyUSB0","mode":3,"time":"2016-12-21T15:48:50.001Z","ept":0.005,"lat":52.487416667,"lon":1.742755000,"alt":27.300,"epx":8.006,"epy":12.512,"epv":29.900,"track":0.0000,"speed":0.000,"climb":0.000,"eps":25.02,"epc":59.80}
{"class":"TPV","tag":"RMC","device":"/dev/ttyUSB0","mode":3,"time":"2016-12-21T15:48:54.001Z","ept":0.005,"lat":52.487416667,"lon":1.742755000,"alt":27.300,"epx":8.006,"epy":12.512,"epv":29.900,"track":0.0000,"speed":0.000,"climb":0.000,"eps":25.02,"epc":59.80}
{"class":"TPV","tag":"RMC","device":"/dev/ttyUSB0","mode":3,"time":"2016-12-21T15:48:59.001Z","ept":0.005,"lat":52.487416667,"lon":1.742755000,"alt":27.300,"epx":8.006,"epy":12.512,"epv":29.900,"track":0.0000,"speed":0.000,"climb":0.000,"eps":25.02,"epc":59.80}
{"class":"TPV","tag":"RMC","device":"/dev/ttyUSB0","mode":3,"time":"2016-12-21T15:49:03.001Z","ept":0.005,"lat":52.487416667,"lon":1.742755000,"alt":27.300,"epx":8.006,"epy":12.512,"epv":29.900,"track":0.0000,"speed":0.000,"climb":0.000,"eps":25.02,"epc":59.80}
{"class":"TPV","tag":"RMC","device":"/dev/ttyUSB0","mode":3,"time":"2016-12-21T15:49:08.001Z","ept":0.005,"lat":52.487416667,"lon":1.742755000,"alt":27.300,"epx":8.006,"epy":12.512,"epv":29.900,"track":0.0000,"speed":0.000,"climb":0.000,"eps":25.02,"epc":59.80}
{"class":"TPV","tag":"RMC","device":"/dev/ttyUSB0","mode":3,"time":"2016-12-21T15:49:14.001Z","ept":0.005,"lat":52.487416667,"lon":1.742755000,"alt":27.300,"epx":8.006,"epy":12.512,"epv":36.800,"track":0.0000,"speed":0.000,"climb":0.000,"eps":25.02}
{"class":"TPV","tag":"RMC","device":"/dev/ttyUSB0","mode":3,"time":"2016-12-21T15:49:18.001Z","ept":0.005,"lat":52.487416667,"lon":1.742755000,"alt":27.300,"epx":8.006,"epy":12.512,"epv":29.900,"track":0.0000,"speed":0.000,"climb":0.000,"eps":25.02,"epc":59.80}
{"class":"TPV","tag":"RMC","device":"/dev/ttyUSB0","mode":3,"time":"2016-12-21T15:49:23.001Z","ept":0.005,"lat":52.487416667,"lon":1.742755000,"alt":27.300,"epx":8.006,"epy":12.512,"epv":32.200,"track":0.0000,"speed":0.000,"climb":0.000,"eps":25.02,"epc":64.40}
{"class":"TPV","tag":"RMC","device":"/dev/ttyUSB0","mode":3,"time":"2016-12-21T15:49:27.001Z","ept":0.005,"lat":52.487416667,"lon":1.742755000,"alt":27.300,"epx":8.006,"epy":12.512,"epv":29.900,"track":0.0000,"speed":0.000,"climb":0.000,"eps":25.02,"epc":59.80}
{"class":"TPV","tag":"RMC","device":"/dev/ttyUSB0","mode":3,"time":"2016-12-21T15:49:32.001Z","ept":0.005,"lat":52.487416667,"lon":1.742755000,"alt":27.300,"epx":8.006,"epy":12.512,"epv":29.900,"track":0.0000,"speed":0.000,"climb":0.000,"eps":25.02,"epc":59.80}
{"class":"TPV","tag":"RMC","device":"/dev/ttyUSB0","mode":3,"time":"2016-12-21T15:49:36.001Z","ept":0.005,"lat":52.487520000,"lon":1.742745000,"alt":47.600,"epx":8.006,"epy":12.512,"epv":29.900,"track":352.5000,"speed":0.720,"climb":0.700,"eps":25.02,"epc":59.80}
{"class":"TPV","tag":"RMC","device":"/dev/ttyUSB0","mode":3,"time":"2016-12-21T15:49:41.001Z","ept":0.005,"lat":52.487525000,"lon":1.742755000,"alt":49.100,"epx":8.006,"epy":12.512,"epv":29.900,"track":352.5000,"speed":0.000,"climb":0.000,"eps":25.02,"epc":59.80}
{"class":"TPV","tag":"RMC","device":"/dev/ttyUSB0","mode":3,"time":"2016-12-21T15:49:45.001Z","ept":0.005,"lat":52.487548333,"lon":1.742745000,"alt":48.600,"epx":8.006,"epy":12.512,"epv":29.900,"track":352.5000,"speed":0.000,"climb":-0.200,"eps":25.02,"epc":59.80}
{"class":"TPV","tag":"RMC","device":"/dev/ttyUSB0","mode":3,"time":"2016-12-21T15:49:50.001Z","ept":0.005,"lat":52.487545000,"lon":1.742753333,"alt":48.700,"epx":8.006,"epy":12.512,"epv":29.900,"track":352.5000,"speed":0.000,"climb":0.000,"eps":25.02,"epc":59.80}
{"class":"TPV","tag":"RMC","device":"/dev/ttyUSB0","mode":3,"time":"2016-12-21T15:49:54.001Z","ept":0.005,"lat":52.487545000,"lon":1.742753333,"alt":48.700,"epx":8.006,"epy":12.512,"epv":29.900,"track":352.5000,"speed":0.000,"climb":0.000,"eps":25.02,"epc":59.80}
{"class":"TPV","tag":"RMC","device":"/dev/ttyUSB0","mode":3,"time":"2016-12-21T15:49:59.001Z","ept":0.005,"lat":52.487545000,"lon":1.742753333,"alt":48.700,"epx":8.006,"epy":12.512,"epv":29.900,"track":352.5000,"speed":0.000,"climb":0.000,"eps":25.02,"epc":59.80}
{"class":"TPV","tag":"RMC","device":"/dev/ttyUSB0","mode":3,"time":"2016-12-21T15:50:03.001Z","ept":0.005,"lat":52.487545000,"lon":1.742753333,"alt":48.700,"epx":8.006,"epy":12.512,"epv":29.900,"track":352.5000,"speed":0.000,"climb":0.000,"eps":25.02,"epc":59.80}
{"class":"TPV","tag":"RMC","device":"/dev/ttyUSB0","mode":3,"time":"2016-12-21T15:50:08.001Z","ept":0.005,"lat":52.487545000,"lon":1.742753333,"alt":48.700,"epx":8.006,"epy":12.512,"epv":29.900,"track":352.5000,"speed":0.000,"climb":0.000,"eps":25.02,"epc":59.80}
{"class":"TPV","tag":"RMC","device":"/dev/ttyUSB0","mode":3,"time":"2016-12-21T15:50:12.001Z","ept":0.005,"lat":52.487545000,"lon":1.742753333,"alt":48.700,"epx":8.006,"epy":12.512,"epv":39.100,"track":352.5000,"speed":0.000,"climb":0.000,"eps":25.02,"epc":69.00}
{"class":"TPV","tag":"RMC","device":"/dev/ttyUSB0","mode":3,"time":"2016-12-21T15:50:18.001Z","ept":0.005,"lat":52.487545000,"lon":1.742753333,"alt":48.700,"epx":8.006,"epy":12.512,"epv":29.900,"track":352.5000,"speed":0.000,"climb":0.000,"eps":25.02}
{"class":"TPV","tag":"RMC","device":"/dev/ttyUSB0","mode":3,"time":"2016-12-21T15:50:23.001Z","ept":0.005,"lat":52.487545000,"lon":1.742753333,"alt":48.700,"epx":8.006,"epy":12.512,"epv":29.900,"track":352.5000,"speed":0.000,"climb":0.000,"eps":25.02,"epc":59.80}
{"class":"TPV","tag":"RMC","device":"/dev/ttyUSB0","mode":3,"time":"2016-12-21T15:50:27.001Z","ept":0.005,"lat":52.487545000,"lon":1.742753333,"alt":48.700,"epx":8.006,"epy":12.512,"epv":29.900,"track":352.5000,"speed":0.000,"climb":0.000,"eps":25.02,"epc":59.80}
{"class":"TPV","tag":"RMC","device":"/dev/ttyUSB0","mode":3,"time":"2016-12-21T15:50:32.001Z","ept":0.005,"lat":52.487545000,"lon":1.742753333,"alt":48.700,"epx":8.006,"epy":12.512,"epv":29.900,"track":352.5000,"speed":0.000,"climb":0.000,"eps":25.02,"epc":59.80}
{"class":"TPV","tag":"RMC","device":"/dev/ttyUSB0","mode":3,"time":"2016-12-21T15:50:36.001Z","ept":0.005,"lat":52.487545000,"lon":1.742753333,"alt":48.700,"epx":8.006,"epy":12.512,"epv":29.900,"track":352.5000,"speed":0.000,"climb":0.000,"eps":25.02,"epc":59.80}
{"class":"TPV","tag":"RMC","device":"/dev/ttyUSB0","mode":3,"time":"2016-12-21T15:50:41.001Z","ept":0.005,"lat":52.487481667,"lon":1.742790000,"alt":34.000,"epx":8.006,"epy":12.512,"epv":29.900,"track":352.5000,"speed":0.000,"climb":0.000,"eps":25.02,"epc":59.80}
{"class":"TPV","tag":"RMC","device":"/dev/ttyUSB0","mode":3,"time":"2016-12-21T15:50:45.001Z","ept":0.005,"lat":52.487481667,"lon":1.742790000,"alt":34.000,"epx":8.006,"epy":12.512,"epv":29.900,"track":352.5000,"speed":0.000,"climb":0.000,"eps":25.02,"epc":59.80}
{"class":"TPV","tag":"RMC","device":"/dev/ttyUSB0","mode":3,"time":"2016-12-21T15:50:50.001Z","ept":0.005,"lat":52.487481667,"lon":1.742790000,"alt":34.000,"epx":8.006,"epy":12.512,"epv":29.900,"track":352.5000,"speed":0.000,"climb":0.000,"eps":25.02,"epc":59.80}
{"class":"TPV","tag":"RMC","device":"/dev/ttyUSB0","mode":3,"time":"2016-12-21T15:50:54.001Z","ept":0.005,"lat":52.487481667,"lon":1.742790000,"alt":34.000,"epx":8.006,"epy":12.512,"epv":29.900,"track":352.5000,"speed":0.000,"climb":0.000,"eps":25.02,"epc":59.80}
{"class":"TPV","tag":"RMC","device":"/dev/ttyUSB0","mode":3,"time":"2016-12-21T15:50:59.001Z","ept":0.005,"lat":52.487481667,"lon":1.742790000,"alt":34.000,"epx":8.006,"epy":12.512,"epv":29.900,"track":352.5000,"speed":0.000,"climb":0.000,"eps":25.02,"epc":59.80}
{"class":"TPV","tag":"RMC","device":"/dev/ttyUSB0","mode":3,"time":"2016-12-21T15:51:03.001Z","ept":0.005,"lat":52.487481667,"lon":1.742790000,"alt":34.000,"epx":8.006,"epy":12.512,"epv":29.900,"track":352.5000,"speed":0.000,"climb":0.000,"eps":25.02,"epc":59.80}
{"class":"TPV","tag":"RMC","device":"/dev/ttyUSB0","mode":3,"time":"2016-12-21T15:51:08.001Z","ept":0.005,"lat":52.487481667,"lon":1.742790000,"alt":34.000,"epx":8.006,"epy":12.512,"epv":29.900,"track":352.5000,"speed":0.000,"climb":0.000,"eps":25.02,"epc":59.80}
{"class":"TPV","tag":"RMC","device":"/dev/ttyUSB0","mode":3,"time":"2016-12-21T15:51:12.001Z","ept":0.005,"lat":52.487481667,"lon":1.742790000,"alt":34.000,"epx":8.006,"epy":12.512,"epv":29.900,"track":352.5000,"speed":0.000,"climb":0.000,"eps":25.02,"epc":59.80}
{"class":"TPV","tag":"RMC","device":"/dev/ttyUSB0","mode":3,"time":"2016-12-21T15:51:17.001Z","ept":0.005,"lat":52.487481667,"lon":1.742790000,"alt":34.000,"epx":8.006,"epy":12.512,"epv":39.100,"track":352.5000,"speed":0.000,"climb":0.000,"eps":25.02,"epc":69.00}
{"class":"TPV","tag":"RMC","device":"/dev/ttyUSB0","mode":3,"time":"2016-12-21T15:51:23.001Z","ept":0.005,"lat":52.487481667,"lon":1.742790000,"alt":34.000,"epx":8.006,"epy":12.512,"epv":39.100,"track":352.5000,"speed":0.000,"climb":0.000,"eps":25.02}
{"class":"TPV","tag":"RMC","device":"/dev/ttyUSB0","mode":3,"time":"2016-12-21T15:51:27.001Z","ept":0.005,"lat":52.487481667,"lon":1.742790000,"alt":34.000,"epx":8.006,"epy":12.512,"epv":29.900,"track":352.5000,"speed":0.000,"climb":0.000,"eps":25.02,"epc":69.00}
{"class":"TPV","tag":"RMC","device":"/dev/ttyUSB0","mode":3,"time":"2016-12-21T15:51:32.002Z","ept":0.005,"lat":52.487481667,"lon":1.742790000,"alt":34.000,"epx":8.006,"epy":12.512,"epv":29.900,"track":352.5000,"speed":0.000,"climb":0.000,"eps":25.02,"epc":59.80}
{"class":"TPV","tag":"RMC","device":"/dev/ttyUSB0","mode":3,"time":"2016-12-21T15:51:36.002Z","ept":0.005,"lat":52.487481667,"lon":1.742790000,"alt":34.000,"epx":8.006,"epy":12.512,"epv":29.900,"track":352.5000,"speed":0.000,"climb":0.000,"eps":25.02,"epc":59.80}
{"class":"TPV","tag":"RMC","device":"/dev/ttyUSB0","mode":3,"time":"2016-12-21T15:51:41.002Z","ept":0.005,"lat":52.487481667,"lon":1.742790000,"alt":34.000,"epx":8.006,"epy":12.512,"epv":29.900,"track":352.5000,"speed":0.000,"climb":0.000,"eps":25.02,"epc":59.80}
{"class":"TPV","tag":"RMC","device":"/dev/ttyUSB0","mode":3,"time":"2016-12-21T15:51:45.002Z","ept":0.005,"lat":52.487481667,"lon":1.742790000,"alt":34.000,"epx":8.006,"epy":12.512,"epv":29.900,"track":352.5000,"speed":0.000,"climb":0.000,"eps":25.02,"epc":59.80}
{"class":"TPV","tag":"RMC","device":"/dev/ttyUSB0","mode":3,"time":"2016-12-21T15:51:50.002Z","ept":0.005,"lat":52.487481667,"lon":1.742790000,"alt":34.000,"epx":8.006,"epy":12.512,"epv":29.900,"track":352.5000,"speed":0.000,"climb":0.000,"eps":25.02,"epc":59.80}
{"class":"TPV","tag":"RMC","device":"/dev/ttyUSB0","mode":3,"time":"2016-12-21T15:51:54.002Z","ept":0.005,"lat":52.487481667,"lon":1.742790000,"alt":34.000,"epx":8.006,"epy":12.512,"epv":29.900,"track":352.5000,"speed":0.000,"climb":0.000,"eps":25.02,"epc":59.80}
{"class":"TPV","tag":"RMC","device":"/dev/ttyUSB0","mode":3,"time":"2016-12-21T15:51:59.002Z","ept":0.005,"lat":52.487481667,"lon":1.742790000,"alt":34.000,"epx":8.006,"epy":12.512,"epv":29.900,"track":352.5000,"speed":0.000,"climb":0.000,"eps":25.02,"epc":69.00}
{"class":"TPV","tag":"RMC","device":"/dev/ttyUSB0","mode":3,"time":"2016-12-21T15:52:03.002Z","ept":0.005,"lat":52.487481667,"lon":1.742790000,"alt":34.000,"epx":8.006,"epy":12.512,"epv":29.900,"track":352.5000,"speed":0.000,"climb":0.000,"eps":25.02,"epc":59.80}
{"class":"TPV","tag":"RMC","device":"/dev/ttyUSB0","mode":3,"time":"2016-12-21T15:52:08.002Z","ept":0.005,"lat":52.487481667,"lon":1.742790000,"alt":34.000,"epx":8.006,"epy":12.512,"epv":29.900,"track":352.5000,"speed":0.000,"climb":0.000,"eps":25.02,"epc":59.80}
